uf,numeroZE,numeroLocalVotacao,nome,endereco,quantidadeSecoes,latitude,longitude
DF,1,1015,ESCOLA CLASSE 102 SUL,SQS 102 AREA ESPECIAL,7,-15.8039651,-47.890341
DF,1,1023,ESCOLA SALESIANA BRASÍLIA (DOM BOSCO),SHIGS 702 CONJUNTO A,12,-15.8010256,-47.8949295
DF,1,1139,SEB DÍNATOS,SGAS 604  CONJUNTO C LOTES 25/26,9,-15.8142801,-47.8871431
DF,1,1163,CENTRO DE ENSINO FUNDAMENTAL 214 SUL,SQS 214 AREA ESPECIAL,7,-15.8320123,-47.9174534
DF,1,1198,ESCOLA CLASSE 305 SUL,SQS 305 AREA ESPECIAL,7,-15.8075277,-47.8997188
DF,1,1236,CENTRO EDUCACIONAL LA SALLE,SGAS 906  CONJUNTO E LOTE 06,13,-15.8017825,-47.8996432
DF,1,1244,ESCOLA PARQUE 313/314 SUL,EQS 313/314 AREA ESPECIAL,10,-15.8242676,-47.9210258
DF,1,1287,ESCOLA CLASSE 316 SUL,SQS 316 AREA ESPECIAL,9,-15.8302094,-47.9267996
DF,1,1309,CENTRO DE ENSINO FUNDAMENTAL 405 SUL,SQS 405 AREA ESPECIAL,8,-15.816096,-47.8921299
DF,1,1333,ESCOLA CLASSE 413 SUL,SQS 413 AREA ESPECIAL,6,-15.8315425,-47.9128478
DF,1,1341,COLEGIO COR JESU,SGAS 615  LOTE 110,12,-15.8376977,-47.9181984
DF,1,1376,CEJA ASA SUL C.E.S.A.S.,SGAS 602 PROJ D,13,-15.8094757,-47.8824921
DF,1,1384,CEM SETOR LESTE,SGAS 611/612 CONJUNTO E,17,-15.8312522,-47.9068765
DF,1,1422,UDF,SEPS 704/904 CONJUNTO A,19,-15.8028798,-47.8993918
DF,1,1457,CEM ELEFANTE BRANCO,SGAS 708/908 MÓDULOS 25/26 ÁREA ESPECIAL - ALA SUL,11,-15.8092358,-47.9086075
DF,1,1899,COLEGIO MARISTA ENSINO MÉDIO,SGAS 615 MÓDULO C,19,-15.836891,-47.9167319
DF,1,1902,COLEGIO MARISTA DE BRASILIA,SGAS 609 MODULO A,15,-15.8253566,-47.9000934
DF,1,1961,UPIS - UNIAO PIONEIRA DE INTEGRACAO SOCIAL,SEPS 712/912 CONJUNTO A,17,-15.8151904,-47.9160807
DF,1,2003,ESCOLA CLASSE 206 SUL,SQS 206 AREA ESPECIAL,8,-15.816545,-47.8964859
DF,1,2020,ESCOLA CLASSE 209 SUL,SQS 209  AREA ESPECIAL,7,-15.8216581,-47.9029438
DF,1,2046,ESCOLA CLASSE 416 SUL,SQS 416 AREA ESPECIAL,8,-15.8377992,-47.9221412
DF,1,2097,CENTRO DE ENSINO FUNDAMENTAL 03 DE BRASILIA,SQS 103 AREA ESPECIAL,5,-15.8051529,-47.8919132
DF,1,2100,CENTRO DE ENSINO FUNDAMENTAL 01 DE BRASILIA,SQS 106 AREA ESPECIAL,7,-15.8129772,-47.8978537
DF,1,2143,CENTRO DE ENSINO FUNDAMENTAL 05 DE BRASILIA,SQS 408 AREA ESPECIAL,7,-15.8231915,-47.8996245
DF,1,2151,UNIP - UNIVERSIDADE PAULISTA,SGAS 913 S/N CONJUNTO B,18,-15.819478,-47.9216712
DF,1,2208,CIL - CENTRO INTERESCOLAR DE LÍNGUAS,SGAS 907/908 MÓDULOS 25/26 - ASA SUL - JUNTO AO CEM ELEF BRANCO,10,-15.8083674,-47.9090913
DF,2,1015,ESCOLA CLASSE 01 DO PARANOA,QD 26 CJ G LT 01 - AREA ESPECIAL,12,-15.76474748,-47.77840761
DF,2,1023,ESCOLA CLASSE 02 DO PARANOA,QD 30 CJ L LT 17,13,-15.7639351,-47.7784965
DF,2,1228,ESCOLA CLASSE 03 DO PARANOA,QUADRA 17 CONJ. C LOTE 08,12,-15.773172,-47.7808929
DF,2,1236,ESCOLA CLASSE 04 DO PARANOA,QD 14 CJ F LT 01,14,-15.773077,-47.776929
DF,2,1252,CAIC SANTA PAULINA,QUADRA 05 AREA ESPECIAL 01,8,-15.7781646,-47.7842277
DF,2,1317,ESCOLA CLASSE ALTO INTERLAGOS,"CHÁCARA INTERLAGOS, N 10A, ALTIPLANO LESTE",3,-15.826611,-47.7439474
DF,2,1333,CENTRO DE ENSINO MÉDIO 01 DO PARANOA,QUADRA 4 CONJ. A LOTE 05 - PARANOA,13,-15.7824766,-47.77972926
DF,2,1341,CENTRO DE ENSINO FUNDAMENTAL 02 DO PARANOA,QUADRA 04 CONJ. A LOTE 05,11,-15.78279799,-47.77897658
DF,2,1350,CENTRO EDUCACIONAL DARCY RIBEIRO,QUADRA 31 CJ. F  AREA ESPECIAL,13,-15.7625092,-47.7831292
DF,2,1368,ESCOLA CLASSE 05 DO PARANOA,QUADRA 24 CJ. I AREA ESPECIAL,10,-15.7667377,-47.7771713
DF,2,1430,CENTRO DE ENSINO FUNDAMENTAL 01 DO PARANOA,QUADRA 03 AREA ESPECIAL 06,12,-15.7791214,-47.7833669
DF,2,1449,CENTRO DE ENSINO FUNDAMENTAL 01 DO VARJAO,"QD. 07, CJ. D, LT. 02, ÁREA ESPECIAL, VARJÃO",11,-15.7089987,-47.878189
DF,2,1457,CENTRO DE ENSINO FUNDAMENTAL 03 DO PARANOÁ,QUADRA 26 CONJ G ÁREA ESPECIAL,17,-15.7650179,-47.7793309
DF,2,1465,CENTRO DE ENSINO FUNDAMENTAL 01 DO LAGO NORTE,SHIN QI 04/06 AE LAGO NORTE,16,-15.7334732,-47.8729548
DF,2,1473,ESCOLA CLASSE GRANJA DO TORTO,AE S/N GRANJA DO TORTO,6,-15.7052464,-47.9118782
DF,2,1481,COLEGIO COC LAGO NORTE,SHIN QL 9/11- AE S/N  LOTE B,19,-15.7461065,-47.841181
DF,2,1490,COLEGIO INDI BIBIA,SHIN QI 3 CONJUNTO D A.E,11,-15.7296387,-47.8626899
DF,2,1511,CENTRO EDUCACIONAL DO LAGO NORTE,SHIN CA 02 LOTE 24 LAGO NORTE,12,-15.7182288,-47.8795755
DF,2,1520,GINASIO DO CLUBE DO CONGRESSO - SEDE CAMPESTRE - LAGO NORTE,SHIN QL 16 S/N,4,-15.7706219,-47.8328868
DF,2,1538,COLÉGIO DO SOL,CA 06 LOTE A,16,-15.7146792,-47.8816472
DF,2,1546,ESCOLA CLASSE CORA CORALINA,"COND. ENTRELAGOS, ROD. DF 250, KM 02",7,-15.7290477,-47.7498921
DF,2,1554,CENTRO DE ENSINO FUNDAMENTAL ABC,QUADRA 27 CONJUNTO A LOTES 06/07,5,-15.7661804,-47.7804049
DF,2,1562,CENTRO SOCIAL JOÃO PAULO II,QUADRA 03 ÁREA ESPECIAL LOTE 01,7,-15.7806653,-47.7839003
DF,2,1589,COLÉGIO GONÇALVES DIAS,QUADRA 23 CONJUNTO I LOTES 04/06,5,-15.7674419,-47.7806602
DF,2,1597,ESCOLA CLASSE 01 DO ITAPOÃ,DEL LAGO QUADRA 61 CONJUNTO E ÁREA ESPECIAL,14,-15.7451486,-47.7697126
DF,2,1600,ESCOLA CLASSE 02 DO ITAPOÃ,DEL LAGO QD. 378 CONJ. L ÁREA ESPECIAL,14,-15.7394781,-47.7633099
DF,2,1619,CENTRO DE ENSINO FUNDAMENTAL DRA. ZILDA ARNS,"QUADRA 378, CONJUNTO N, ÁREA ESPECIAL, NÚMERO 2",18,-15.7391941,-47.7623306
DF,2,1627,ESCOLA CLASSE SOBRADINHO DOS MELOS,DF 250 - VIA LAGO NORTE - KM 07 - NR,2,-15.7970072,-47.6939568
DF,2,1635,ESCOLA CLASSE OLHOS D'ÁGUA,"BR-020, CH OLHOS DAGUA 22, TAQUARI",2,-15.6932967,-47.8641668
DF,2,1643,ESCOLA CLASSE ASPALHA,"SMLN - TRECHO 04, CONJUNTO 01, CH 160",2,-15.7325081,-47.8337997
DF,2,1678,ESCOLA CLASSE 06 DO PARANOA,"QUADRA 33, ÁREA ESPECIAL, MÓDULO G",8,-15.7577761,-47.7837416
DF,3,1333,CENTRO DE ENSINO MÉDIO 05,QNJ 56 AREA ESPECIAL N. 16,20,-15.8145584,-48.0877832
DF,3,1341,CENTRO DE ENSINO ESPECIAL N 01,QNJ 20 AE 12,17,-15.8164626,-48.0853715
DF,3,1350,ESCOLA CLASSE N 29,QNJ 18 AREA ESPECIAL N 10,8,-15.814946,-48.0859836
DF,3,1376,CENTRO EDUCACIONAL N 6,QNL 1 AREA ESPECIAL N.1,20,-15.8311317,-48.0787005
DF,3,1384,CENTRO DE ENSINO FUNDAMENTAL 04,EQNL 05/07 AREA ESPECIAL,14,-15.8227813,-48.0831074
DF,3,1392,CENTRO DE ENSINO FUNDAMENTAL 19,EQNL 10/12 AREA ESPECIAL 01,14,-15.82037,-48.0794516
DF,3,1406,ESCOLA CLASSE N 41,EQNL 13/15 AREA ESPECIAL 01,17,-15.8245162,-48.0873316
DF,3,1414,ESCOLA CLASSE N 46,EQNL 21/23 AREA ESPECIAL 01,11,-15.8141975,-48.0907957
DF,3,1422,CENTRO DE ENSINO FUNDAMENTAL 16,QNL 22  AE 24,10,-15.8249482,-48.0906849
DF,3,1430,ESCOLA CLASSE 55,QNL 28 AREA ESPECIAL 27,10,-15.8157286,-48.0937578
DF,3,1449,ESCOLA CLASSE N 42,EQNM 34/36 AREA ESPECIAL 01,17,-15.8079669,-48.0954452
DF,3,1457,CENTRO EDUCACIONAL N 07,EQNM 36/38 AREA ESPECIAL,15,-15.8046791,-48.1000035
DF,3,1465,CENTRO DE ENSINO FUNDAMENTAL 17,EQNM 38/40 LOTE A,13,-15.7966801,-48.1026438
DF,3,1473,ESCOLA CLASSE N 45,EQNM 40/42  AREA ESPECIAL S/N,16,-15.7947531,-48.1075559
DF,3,1520,ESCOLA CLASSE N 53,QNL 16  VIA 02 LOTE 1,9,-15.8312978,-48.0884265
DF,3,1570,ESCOLA CLASSE N 50,EQNL 02/04 AREA ESPECIAL,11,-15.8315467,-48.0752507
DF,3,1635,CENTRO DE EDUCAÇÃO INFANTIL 05,EQNJ 23/25 AREA ESPECIAL,5,-15.8153,-48.0816882
DF,3,1643,CENTRO DE EDUCAÇÃO INFANTIL 03,QNM 36 CONJUNTO B-2 LOTE 60 - VILA MUTIRAO,8,-15.8069295,-48.0979217
DF,3,1651,ESCOLA CLASSE N 52,QNM 38 AREA ESPECIAL,4,-15.8014399,-48.1021915
DF,3,1660,CENTRO DE EDUCAÇÃO INFANTIL 06,EQNL 17/19 AREA ESPECIAL,7,-15.8194516,-48.0890817
DF,4,1139,ESCOLA CLASSE 116 DE SANTA MARIA,CL 116 LOTE 1-M,15,-16.00268729,-47.99396988
DF,4,1147,ESCOLA CLASSE 203,Q.203 AREA ESPECIAL,18,-16.03753245,-48.03325645
DF,4,1163,CENTRO DE ENSINO MEDIO 417 DE SANTA MARIA,QR 417 LOTE A,16,-16.01165459,-47.99051528
DF,4,1180,CENTRO DE ENSINO FUNDAMENTAL 308 DE SANTA MARIA,CL 308 LOTE 1-B,19,-16.02729471,-48.02282156
DF,4,1252,ESCOLA CLASSE 206 DE SANTA MARIA,CL 206 LOTE 1-C,17,-16.02612427,-48.03003017
DF,4,1457,CENTRO DE ENSINO FUNDAMENTAL SANTOS DUMONT,AVENIDA S/N - RESIDENCIAL SANTOS DUMONT- SANTA MARIA,18,-15.9936293,-47.99753957
DF,4,1490,CENTRO DE ENSINO FUNDAMENTAL 201 DE SANTA MARIA,CL 201 LOTE 1 A,13,-16.04440976,-48.03324312
DF,4,1503,CENTRO DE ENSINO MEDIO 404 DE SANTA MARIA,CL 404 LOTE A,15,-16.03400879,-48.02656719
DF,4,1511,CENTRO DE ENSINO FUNDAMENTAL 213 DE SANTA MARIA,CL 213 LOTE 01 - G,15,-16.00855835,-48.00315695
DF,4,1520,ESCOLA CLASSE 218 DE SANTA MARIA,CL 218 LOTE 01 F,14,-16.00710564,-47.98725371
DF,4,1554,CENTRO DE ENSINO FUNDAMENTAL 209 DE SANTA MARIA,CL 209 LOTE 1-A,12,-16.02203939,-48.02406971
DF,4,1562,CENTRO DE ENSINO FUNDAMENTAL 316 DE SANTA MARIA,CL 316 LOTE 1-A,17,-16.0110816,-47.99477194
DF,4,1570,ESCOLA CLASSE  215 DE SANTA MARIA,CL 215 LOTE A,12,-16.00666957,-47.99946698
DF,4,1589,CENTRO DE ENSINO FUNDAMENTAL 103 DE SANTA MARIA,CL 103 LOTE 1-B,10,-16.03734944,-48.0371138
DF,4,1597,CENTRO DE ENSINO GESNER TEIXEIRA,RUA DAS ADALIAS LOTES 2/6 - DVO - CIDADE NOVA,6,-16.04871827,-48.04740728
DF,4,1619,CENTRO DE ENSINO FUNDAMENTAL 418 DE SANTA MARIA,E/Q 417/418 - 517/518 - LOTE 01,15,-16.01399527,-47.98605669
DF,4,1627,CENTRO DE ENSINO FUNDAMENTAL 403 DE SANTA MARIA,CL 403 - LOTE 1-A,15,-16.03774896,-48.02644322
DF,4,1635,ESCOLA CLASSE 100 DE SANTA MARIA,QR 100 - CONJUNTO T - AREA ESPECIAL 01,12,-16.04264542,-48.03876445
DF,4,1651,ESCOLA CLASSE 01 - PORTO RICO,QUADRA 17 - LOTE 14-C - 3 ETAPA - CONDOMINIO PORTO RICO,10,-16.03509659,-48.01809166
DF,4,1660,CENTRO EDUCACIONAL 310 DE SANTA MARIA,CL 310 - CONJ H - AREA ESPECIAL,15,-16.02333942,-48.01657185
DF,5,1023,CENTRO DE ENSINO FUNDAMENTAL 01,QUADRA 02 C/D LOTE F,11,-15.6577874,-47.7928649
DF,5,1058,ESCOLA CLASSE 15,QUADRA 3 AREA ESPECIAL 1/2,19,-15.6524772,-47.8089912
DF,5,1066,CENTRO DE ENSINO MEDIO 01,QUADRA 04 AREA ESPECIAL 4,22,-15.6533186,-47.7986834
DF,5,1074,CENTRO EDUCACIONAL 03,QUADRA 5 AREA ESPECIAL 5,19,-15.6496443,-47.8120745
DF,5,1082,CENTRO DE ENSINO FUNDAMENTAL 03,QUADRA 6 AREA ESPECIAL 3,13,-15.6508369,-47.799673
DF,5,1104,ESCOLA CLASSE 05,QUADRA 9 AREA ESPECIAL 05,14,-15.6402317,-47.8018309
DF,5,1112,CENTRO DE ENSINO FUNDAMENTAL 05,QUADRA 10 RUA 4 AREA ESPECIAL 4/5,17,-15.6438918,-47.7976722
DF,5,1139,CENTRO EDUCACIONAL 02,QUADRA 12 AREA ESPECIAL 5,18,-15.6482312,-47.7861616
DF,5,1163,CENTRO DE ENSINO ESPECIAL Nº 01,QUADRA 14 AREA ESPECIAL RUA 5,6,-15.6504349,-47.7790945
DF,5,1171,CENTRO DE ENSINO FUNDAMENTAL 04,QUADRA 15 AREA ESPECIAL 2,18,-15.6465806,-47.7783256
DF,5,1309,ESCOLA CLASSE CATINGUEIRO,DF 205 KM 13 ESTRADA SECUNDARIA,2,-15.5637019,-47.9353355
DF,5,1317,ESCOLA CLASSE CORREGO DO OURO,DF 205 FAZENDA CORREGO DO OURO,2,-15.5132388,-47.9231257
DF,5,1341,CENTRO EDUCACIONAL FERCAL,DF 205 OESTE KM 19 FERCAL,9,-15.5905834,-47.8810443
DF,5,1350,ESCOLA CLASSE ENGENHO VELHO,ROD DF 150 KM 12 CD ENGENHO VELHO,5,-15.6016908,-47.8695073
DF,5,1368,ESCOLA CLASSE SANTA HELENA,DF 001 GRANJA SANTA HELENA,3,-15.7067885,-47.798955
DF,5,1406,ESCOLA CLASSE 13 AR 05,AR 05 AREA ESPECIAL 1,9,-15.6400849,-47.8246793
DF,5,1422,CENTRO DE ENSINO FUNDAMENTAL PROF CARLOS MOTA,RODOVIA DF-01 KM 13 RUA 8 CHACARA 187-LAGO OESTE,8,-15.6181169,-47.950611
DF,5,1430,CAIC JULIA KUBITSCHEK,AR 13 CONJUNTO 3 AREA ESPECIAL 01,8,-15.6437254,-47.8235541
DF,5,1473,CENTRO INTERESCOLAR DE LINGUAS -CIL,QUADRA 11 AREA RESERVADA 01,8,-15.6443397,-47.7880839
DF,5,1481,COLEGIO POSITIVO PINGO DE GENTE,"CONDOMINIO HALLEY MOD. C LOTES 09,26 E 27",7,-15.6622586,-47.8399112
DF,5,1490,ESCOLA CLASSE BOA VISTA,ROD DF 205 OESTE KM 06 COMUNIDADE BOA VISTA,4,-15.5884312,-47.9225912
DF,5,1503,CENTRO EDUCACIONAL LA SALLE,QUADRA 14 AREA ESP. LOTES 24/27,16,-15.6509252,-47.7815534
DF,5,1511,CENTRO DE ENSINO SANTA RITA DE CASSIA,QUADRA 09 AREA ESPECIAL 02,9,-15.6428635,-47.8030177
DF,5,1520,ESCOLA CLASSE 14,AR 19 CONJUNTO 07 LOTE 01,8,-15.6435317,-47.8162061
DF,5,1538,CENTRO EDUCACIONAL 04,AR 10 CONJUNTO 09 LOTE 01,15,-15.6462343,-47.8258147
DF,5,1546,CENTRO DE EDUCAÇÃO INFANTIL 01,QUADRA 02  AREA ESPECIAL,6,-15.6605557,-47.8051358
DF,5,1554,CENTRO DE ENSINO FUNDAMENTAL 07,AR 13 CONJUNTO 05 LOTE 01,13,-15.6441976,-47.8250742
DF,5,1597,ESCOLA CLASSE MORRO DO SANSAO,FAZENDA SOBRADINHO PROX. AO POLO DE CINEMA,2,-15.6197048,-47.823249
DF,5,1600,CENTRO DE EDUCAÇÃO INFANTIL 03,QUADRA 16 AREA ESPECIAL D/1,7,-15.6474002,-47.7744002
DF,5,1619,ESCOLA CLASSE 12,QUADRA 01 AREA ESPECIAL SETOR DE INDUSTRIA,8,-15.6598824,-47.8082006
DF,5,1627,ESCOLA CLASSE 11,QUADRA 11 AREA ESPECIAL,4,-15.6456349,-47.7888056
DF,5,1635,ESCOLA CLASSE 10,QUADRA 02 CONJUNTO B/C LOTE E,7,-15.659071,-47.7969356
DF,5,1643,INSTITUTO EDUCACIONAL SANTO ELIAS,QUADRA 11 AREA RESERVADA 3,6,-15.6455046,-47.7874638
DF,5,1651,ESCOLA CLASSE 04,QUADRA 15 AREA ESPECIAL 02,7,-15.6461757,-47.7777045
DF,5,1660,CENTRO DE ENSINO FUNDAMENTAL 08,AR 03 LOTE 04 AREA ESP. ST OESTE,13,-15.6395527,-47.8283254
DF,5,1686,ESCOLA CLASSE BASEVI,DF 001 KM 6 VILA BASEVI,5,-15.6457901,-47.8894988
DF,5,1694,ESCOLA CLASSE CORREGO DO ARROZAL,BR 020 KM 13/14 NUCLEO RURAL CORREGO DO ARROZAL,2,-15.6456266,-47.7349132
DF,5,1716,ESCOLA CLASSE 16 DE SOBRADINHO - NOVA COLINA,CONDOMINIO NOVO SETOR DE MANSÕES - ÁREA ESPECIAL,10,-15.6498203,-47.7547207
DF,5,1732,ESCOLA CLASSE 17 VILA RABELO,AV CENTRAL AE VILA RABELO,6,-15.6233265,-47.847285
DF,5,1740,ESCOLA CLASSE RUA DO MATO,DF 150 KM 11 CHACARA 4 ESTRADA DA FERCAL,3,-15.6110748,-47.8772901
DF,5,1759,FACULDADE PROJEÇÃO,Q 04  AREA S/N,12,-15.6562445,-47.8044863
DF,5,1767,UNIPROJEÇÃO,"ST.DE IND. DE SOB., QUADRA 02, RUA B, LOTES 01 A 06",7,-15.6609809,-47.8070252
DF,5,1775,CENTRO DE ENSINO FUNDAMENTAL 09 - ANTIGO COER,AR 13 CONJ 1 AREA ESPECIAL 3,10,-15.6428118,-47.8209706
DF,5,1783,ESCOLA CLASSE 01,QUADRA 6 AREA ESPECIAL 1 RUA 5,4,-15.6497743,-47.7985238
DF,5,1805,CENTRO DE EDUCAÇÃO NERY LACERDA - CENEL,SH MANSÕES SOBRADINHO CONDOMÍNIO MINI-CHÁCARAS ES 11B - SOBRADINHO,5,-15.6367978,-47.8444844
DF,5,1813,INSTITUTO PEDAGOGICO CRESCER,"BR 020 KM 2 COND. GRAN VILLE, LOTE 9",2,-15.6824276,-47.8416044
DF,5,1821,CENTRO DE ENSINO FUNDAMENTAL QUEIMA LENÇOL,SITIO PATRICIA DF 325 KM 8/9 LOBERAL ZONA RURAL,3,-15.5892085,-47.8435432
DF,6,1015,ESCOLA CLASSE PARANA,EQ 01/02 LOTE H-SRL,11,-15.6149674,-47.6455861
DF,6,1031,CENTRO DE ENSINO FUNDAMENTAL 08 DE PLANALTINA,EQ 03/04 LOTE H-SRL,11,-15.6213731,-47.6457829
DF,6,1058,ESCOLA CLASSE 06,EQ 05/06 LOTE G-SRL,11,-15.6272764,-47.6467975
DF,6,1066,ESCOLA CLASSE 01,AV. INDEPENDÊNCIA 102,12,-15.6254219,-47.6552759
DF,6,1074,ESCOLA CLASSE 05,AV. CONTORNO Q. 17-VILA VICENTINA,10,-15.6316227,-47.6545569
DF,6,1082,CENTRO DE ENSINO FUNDAMENTAL 02,AV. SÃO PAULO QD 52 LOTE B,14,-15.6219941,-47.6566037
DF,6,1120,CENTRO DE ENSINO FUNDAMENTAL 04,SETOR EDUCACIONAL LOTE C/D,8,-15.622108,-47.6518227
DF,6,1139,CENTRO EDUCACIONAL 01,SETOR EDUCACIONAL LOTES A/B,16,-15.6198276,-47.6516849
DF,6,1171,ESCOLA CLASSE ETA 44,BR 020 KM 18 NUCLEO EXPERIMENTAL EMBRAPA,2,-15.592917,-47.7296058
DF,6,1201,ESCOLA CLASSE  MESTRE D'ARMAS,DF 130 DF 150 KM 18 VALE DO AMANHECER,11,-15.672355,-47.6465198
DF,6,1210,ESCOLA CLASSE MONJOLO,BR 020 DF 335 FAZENDA MONJOLO,5,-15.5377964,-47.6862922
DF,6,1228,CENTRO EDUCACIONAL TAQUARA,BR 020 DF 019 NUCLEO RURAL TAQUARA,5,-15.6334555,-47.5221482
DF,6,1252,CENTRO DE ENSINO FUNDAMENTAL PIPIRIPAU II,BR 020 DF 365 DF 017 NUCLEO RURAL PIPIRIPAU,3,-15.5349437,-47.512018
DF,6,1279,CENTRO DE ENSINO FUNDAMENTAL  SÃO JOSÉ,DF 250 NUCLEO RURAL SÃO JOSÉ,6,-15.7041622,-47.3737344
DF,6,1287,ESCOLA CLASSE ALTAMIR,DF 128 KM 8 BICA DO DER,5,-15.6332525,-47.6811145
DF,6,1295,ESCOLA CLASSE SANTOS DUMONT,DF 130 KM 18-NÚCLEO RURAL SANTOS DUMONT,5,-15.678664,-47.6481146
DF,6,1325,CENTRO DE ENSINO MÉDIO 02,SETOR EDUCACIONAL LOTES J/L,11,-15.6212844,-47.6536368
DF,6,1376,CENTRO EDUCACIONAL 03,EQ 02/03 SETOR RESIDENCIAL NORTE,13,-15.60309356,-47.65035138
DF,6,1406,CENTRO DE ENSINO FUNDAMENTAL  03,EQ 10/20 CONJ H LOTE 01-BURITIS II,12,-15.6158534,-47.6405566
DF,6,1422,CENTRO DE ENSINO FUNDAMENTAL JK,BR 020 MOD. 07 LOTES 16/19-COND. MESTRE DARMAS,8,-15.6012899,-47.6876925
DF,6,1481,CENTRO EDUCACIONAL VARZEAS,DF 120 NÚCLEO RURAL TABATINGA,3,-15.8208781,-47.5704574
DF,6,1490,CENTRO DE ENSINO FUNDAMENTAL RIO PRETO,DF 320 NÚCLEO RURAL RIO PRETO,5,-15.7629614,-47.4928285
DF,6,1520,CENTRO DE ENSINO FUNDAMENTAL NOSSA SENHORA DE FÁTIMA,AREA ESPECIAL 01 VNS DE FATIMA,9,-15.60288469,-47.65789315
DF,6,1546,ESCOLA TÉCNICA DE SAÚDE DE PLANALTINA,ENTRE AV. CONTORNO/AV. INDEPENDÊNCIA - SETOR HOSPITALAR,6,-15.6246916,-47.655052
DF,6,1554,CAIC ASSIS CHATEAUBRIAND,AREA ESPECIAL 04 SRL,11,-15.61801776,-47.64197608
DF,6,1562,CENTRO DE ENSINO FUNDAMENTAL COND ESTÂNCIA III,MODULO 01 RUA 01/16-ESTÂNCIA III,5,-15.6178621,-47.6867358
DF,6,1570,CENTRO DE ENSINO FUNDAMENTAL ARAPOANGA,ÁREA ESPECIAL COND. ARAPOANGA,14,-15.640276,-47.6406895
DF,6,1589,ESCOLA CLASSE 03,Q.1/2 PROJEÇÃO G-SRL,9,-15.61528083,-47.64606104
DF,6,1597,ESCOLA CLASSE 04,EQ 3/4 PROJEÇÃO G SRL,10,-15.6212997,-47.6462299
DF,6,1600,ESCOLA CLASSE 07,QUADRA 45 BAIRRO NOSSA SRA FÁTIMA,7,-15.6422838,-47.6637212
DF,6,1619,ESCOLA CLASSE 09,LOTE 01 VIA WL 01-SRN,4,-15.6104549,-47.6451059
DF,6,1635,ESCOLA CLASSE 11,EQ 4/5 SETOR RESIDENCIAL NORTE,10,-15.603334,-47.6460613
DF,6,1643,ESCOLA CLASSE 13,EQ 6/7 SETOR RESIDENCIAL NORTE,7,-15.60347372,-47.64287504
DF,6,1651,ESCOLA CLASSE 14,QD 13 CONJ A LT 01 BURITIS III,11,-15.61384101,-47.63190345
DF,6,1660,ESCOLA CLASSE APRODARMAS,FAZENDA MESTRE DARMAS,2,-15.6642626,-47.6574224
DF,6,1678,ESCOLA CLASSE ESTÂNCIA,DF 14 LT 63/67 COND. ESTÂNCIA PLANALTINA,12,-15.6057955,-47.6701594
DF,6,1686,CENTRO EDUCACIONAL OSORIO BACCHIN,GLEBA G LOTE 22 NÚCLEO RURAL JARDIM MORUMBI,3,-15.5268748,-47.6303645
DF,6,1694,ESCOLA CLASSE RAJADINHA,DF 006 NÚCLEO RURAL RAJADINHA,3,-15.7536796,-47.6506491
DF,6,1716,CENTRO EDUCACIONAL STELLA DOS CHERUBINS GUIMARÃES TROIS,RUA HUGO LOBO QD 97 AREA ESPECIAL,11,-15.63104,-47.6599327
DF,6,1759,ESCOLA CLASSE VALE DO SOL,COND VALE DO SOL DF 134 AREA ESPECIAL LT 1/6,5,-15.6543682,-47.6514303
DF,6,1813,CENTRO DE ENSINO FUNDAMENTAL 01,SETOR EDUCACIONAL LT M,12,-15.6223843,-47.6540826
DF,6,1821,CENTRO DE ENSINO ESPECIAL 01,SETOR EDUCACIONAL LT 01,2,-15.6196724,-47.6538776
DF,6,1856,CENTRO EDUCACIONAL VALE DO AMANHECER,AE 03 LOTE 01-VILA PACHECO,10,-15.6798237,-47.6566691
DF,6,1864,CENTRO EDUCACIONAL POMPILIO MARQUES DE SOUZA,COND. MESTRE D'ARMAS MOD 1 LOTE 13,13,-15.5993133,-47.6830344
DF,6,1872,ESCOLA CLASSE 01 DO ARAPOANGA,EQ 15/16 CONJ. I AREA ESPECIAL-ARAPOANGA,14,-15.6397664,-47.6359265
DF,6,1880,ESCOLA CLASSE 16,COND. NOVA PLANALTINA Q. 01 RUA A ÁREA ESPECIAL,15,-15.6192448,-47.6812183
DF,6,1899,CENTRO EDUCACIONAL DONA AMÉRICA GUIMARÃES,Q. 10K CONJ.C - ÁREA ESPECIAL - ST. HAB. ARAPOANGA,15,-15.6362664,-47.6327492
DF,6,1902,ESCOLA CLASSE 07 -- BLOCO 02,QUADRA 45 BAIRRO NOSSA SRA DE FATIMA,2,-15.64056871,-47.66428061
DF,6,1910,ESCOLA CLASSE 15,ESTÂNCIA NOVA PLANALTINA QUADRA 01 ÁREA ESPECIAL,13,-15.6184137,-47.6852786
DF,6,1929,ESCOLA CLASSE 02 DO ARAPOANGA,"EM FRENTE A QUADRA 21, CONJ F  ÁREA ESPECIAL-ARAPOANGA",9,-15.6399686,-47.6293286
DF,6,1937,CENTRO EDUCACIONAL DELTA,QUADRA 01 CONJ. F LOTES 21/31,9,-15.61338926,-47.64592826
DF,8,1325,ESCOLA CLASSE 06,EQNM 04/06,18,-15.8109826,-48.1105795
DF,8,1341,CENTRO DE ENSINO 20,EQNM 08/10,19,-15.8014398,-48.1165698
DF,8,1350,ESCOLA CLASSE 27,EQNN 07/09,9,-15.8028358,-48.1196467
DF,8,1406,ESCOLA CLASSE 07 ( CEF 35 ),EQNN 01/03,18,-15.8180779,-48.1121004
DF,8,1422,ESCOLA CLASSE 08,EQNN 05/07,14,-15.8083337,-48.1174035
DF,8,1430,ESCOLA CLASSE 28,EQNN 17/19,9,-15.8205276,-48.1181365
DF,8,1457,CENTRO EDUCACIONAL 07,QNN 13,4,-15.8119053,-48.1184777
DF,8,1465,CENTRO DE ENSINO MARIA DO ROSARIO G.SILVA,EQNN 21/23,14,-15.8098776,-48.1221603
DF,8,1473,CENTRO DE ENSINO 10,EQNN 23/25,14,-15.8054684,-48.1250076
DF,8,1490,CENTRO DE ENSINO 23-(CENTRO EDUCACIONAL 11),EQNP 05/01 - SETOR P NORTE,16,-15.8228021,-48.125118
DF,8,1708,ESCOLA CLASSE 29,EQNN 19/21,10,-15.8155905,-48.1209861
DF,8,1716,ESCOLA CLASSE 26,EQNN 03/05,5,-15.8127135,-48.114328
DF,8,1740,ESCOLA CLASSE 10,EQNM 02/04,9,-15.8155063,-48.1075953
DF,8,1759,ESCOLA CLASSE 11,EQNM 06/08,7,-15.8057371,-48.1130341
DF,8,1791,CENTRO EDUCACIONAL 05-(CEF 25),QNP 09 - SETOR P NORTE,20,-15.8150692,-48.1280841
DF,8,1805,ESCOLA CLASSE 39,EQNP 15/11 - SETOR P NORTE,15,-15.81375503,-48.13318283
DF,8,1813,ESCOLA CLASSE 35,EQNP 13/09 - SETOR P NORTE,16,-15.8123806,-48.1292357
DF,8,1821,ESCOLA CLASSE 40,EQNP 11/07 - SETOR P NORTE,13,-15.8192738,-48.1305616
DF,8,1830,ESCOLA CLASSE 36,EQNP 05/09,10,-15.8175702,-48.1272085
DF,8,1848,INSTITUTO DE ENSINO SUPERIOR DE BRASÍLIA-IESB,"QNN 31 ÀREA ESPECIAL, B,C,D E",31,-15.8101632,-48.1250641
DF,8,1856,CENTRO DE ENSINO MEDIO 03,QNM 13  A.E,14,-15.826827,-48.0984838
DF,8,1864,ESCOLA CLASSE 02,EQNM 19/21,11,-15.8234078,-48.0956741
DF,8,1872,ESCOLA CLASSE 20,EQNN 02/04,10,-15.8232782,-48.1093751
DF,8,1880,ESCOLA CLASSE 01,EQNM 23/25,8,-15.833802,-48.0917904
DF,8,1899,CENTRO DE ENSINO FUNDAMENTAL 02,EQNM 01/03,13,-15.8211083,-48.1049231
DF,8,1902,ESCOLA CLASSE 19,EQNM 07/09,6,-15.8360155,-48.0972243
DF,8,1910,ESCOLA NORMAL DE CEILANDIA,EQNM 17/19,9,-15.8179617,-48.0988116
DF,8,1929,ESCOLA CLASSE 12,EQNM 20/22,8,-15.8073356,-48.1051336
DF,8,1937,ESCOLA CLASSE 18,EQNM 03/05,10,-15.8261488,-48.102748
DF,8,1945,CENTRO EDUCACIONAL 02,QNM 14,22,-15.8075072,-48.1088434
DF,8,1953,ESCOLA CLASSE 13,EQNM 24/26,6,-15.7982742,-48.1117395
DF,8,1961,ESCOLA CLASSE 15,EQNN 08/10,11,-15.8372684,-48.1000911
DF,8,1970,ESCOLA CLASSE 21,EQNN  04/06,13,-15.8274276,-48.1057761
DF,8,1988,CENTRO DE ENSINO 16,EQNM 22/24,14,-15.8032776,-48.1086532
DF,8,1996,ESCOLA CLASSE 22,EQNN 06/08,11,-15.8330446,-48.1039269
DF,8,2003,ESCOLA CLASSE 03,EQNM 18/20,16,-15.8122198,-48.1018161
DF,8,2011,CENTRO DE ENSINO FUNDAMENTAL 07,EQNM 05/07,19,-15.8305053,-48.0994863
DF,8,2020,CENTRO DE ENSINO FUNDAMENTAL 04,EQNM 21/23,13,-15.8283913,-48.0948331
DF,9,1015,ESCOLA CLASSE 1,QI 01/03 LT 'A/E',10,-15.813924,-47.9751153
DF,9,1023,ESCOLA CLASSE 2,QE 2 AE 'A',10,-15.8143764,-47.9839273
DF,9,1031,CENTRO DE ENSINO FUNDAMENTAL 1,QE 4 AE J,16,-15.812763,-47.9883101
DF,9,1040,CENTRO EDUCACIONAL 4,QE 09 AE 'D',14,-15.8206129,-47.9749282
DF,9,1058,CENTRO ENSINO MEDIO 01  DO GUARA - CEM (GG),QE 07 AE 'M',19,-15.8183607,-47.9807255
DF,9,1066,CENTRO DE ENSINO FUNDAMENTAL 4,QE 12 AE 'A',20,-15.8179894,-47.9880191
DF,9,1074,ESCOLA CLASSE 5,QE 20 AE 'K',9,-15.8233102,-47.9818525
DF,9,1082,CENTRO DE ENSINO FUNDAMENTAL 2,QE 7 AE 'Q',13,-15.8159367,-47.9780234
DF,9,1112,CENTRO DE ENSINO FUNDAMENTAL 8,EQ 13/15  AE 'B',17,-15.8276083,-47.9786176
DF,9,1120,CENTRO EDUCACIONAL 3,EQ 17/19 AE 'A',25,-15.8397188,-47.9755318
DF,9,1139,ESCOLA CLASSE 6,EQ 24/26 AE 'A',14,-15.8300111,-47.9844945
DF,9,1147,ESCOLA CLASSE 08 (ANTIGO CEF 07),EQ 28/30 AE 'A',21,-15.8396908,-47.9804652
DF,9,1155,CENTRO DE ENSINO FUNDAMENTAL 5,EQ 32/34 LT 'B' - AE,10,-15.8436986,-47.9733042
DF,9,1163,CENTRO EDUCACIONAL 1,EQ 34/36 AE 'B',15,-15.8431023,-47.9683631
DF,9,1171,ESCOLA CLASSE 7,QE 38 CONJ. 'D' AE 12,5,-15.8477235,-47.9700114
DF,9,1180,CENTRO DE ENSINO FUNDAMENTAL 10,QE 46 AE 05,6,-15.8508263,-47.9629971
DF,9,1198,ESCOLA CLASSE 3,QE 7 LT 'J' AREA ESPECIAL,10,-15.8196207,-47.9794354
DF,9,1210,CENTRO DE ENSINO ESPECIAL 1,QE 20 LT 'A' AREA ESPECIAL,6,-15.818693,-47.9861002
DF,9,1236,COLEGIO ROGACIONISTA,AREA ESPECIAL 08 MODULO B,20,-15.8463956,-47.9713148
DF,9,1244,COLEGIO ELITE (ANTIGO JK),QE 08 AREA ESPECIAL 1,17,-15.8124054,-47.9896604
DF,9,1260,ESCOLA CLASSE VILA ESTRUTURAL,PRACA CENTRAL,14,-15.7813956,-47.9973656
DF,9,1279,CENTRO ENSINO FUNDAMENTAL 01 - VILA ESTRUTURAL,SETOR CENTRAL  AE 03 - VILA ESTRUTURAL,20,-15.7831637,-47.997301
DF,9,1287,COLEGIO PROJEÇÃO,QE 20 AREA ESPECIAL 'E',14,-15.81958,-47.9835839
DF,9,1295,FACULDADE PROJEÇÃO- PERTO TERMINAL RODOVIARIO GUARA II,AREA ESPECIAL 10 LOTE C,25,-15.8396877,-47.9661802
DF,9,1309,ESCOLA CLASSE 02 - VILA ESTRUTURAL,QD 03 CJ 'A' AE 06 - VILA ESTRUTURAL,14,-15.7826283,-47.9985363
DF,9,1317,CILG -CENTRO INTERESCOLAR DE LINGUAS,QE 07 AE 'Q' (AO LADO DO CEF 02),9,-15.8160521,-47.9783941
DF,9,1325,CENTRO EDUCACIONAL INFANTIL 01 DA VILA ESTRUTURAL,QUADRA 03 AE 01 SETOR NORTE,9,-15.7789885,-47.9943233
DF,9,1333,CENTRO DE ENSINO FUNDAMENTAL 02 - VILA ESTRUTURAL,QD 02 AE CONJUNTO 01/02,18,-15.7861387,-47.989033
DF,9,1341,COLEGIO ROGACIONISTA - INFANTIL NUCLEO 01,EQ 34/34 LOTE D,8,-15.8424208,-47.9735435
DF,9,1368,ESCOLA  CLASSE 03  (ANTIGO PADRE DI FRANCIA),QE 42 AE 01,4,-15.8463845,-47.9669311
DF,9,1384,ESCOLA TÉCNICA DO GUARÁ - CEPAG / GUARÁ II,QE 19/17 - LOTE A - GUARÁ II,8,-15.8386784,-47.9768781
DF,9,1406,COLEGIO OBJETIVO DO GUARA,QE 38 AREA ESPECIAL 8 LOTE C,20,-15.8461776,-47.9709706
DF,10,1023,ESCOLA CLASSE 4,2 AV ENTREBLOCOS 440/540,8,-15.8676139,-47.9654324
DF,10,1031,COLEGIO LA SALLE,2 AVENIDA  AREA ESPECIAL 11 - NÚCLEO BANDEIRANTE,18,-15.8687502,-47.9673793
DF,10,1040,CENTRO DE EDUCACAO INFANTIL DO NÚCLEO BANDEIRANTE,2A AV. ENTREBLOCOS 960/1040,7,-15.8701491,-47.9708251
DF,10,1058,ESCOLA CLASSE 5,2 AV ENTREBLOCOS 1400/1500,6,-15.8731045,-47.9760786
DF,10,1066,CENTRO DE ENSINO FUNDAMENTAL 1,AV CONTORNO AE 07 -NÚCLEO BANDEIRANTE,13,-15.8765142,-47.9764803
DF,10,1074,CENTRO EDUCACIONAL AGROURBANO IPÊ,COMBINADO AGROURBANO I (CAUB I) IPE/RIACHO FUNDO,5,-15.9473325,-48.0148775
DF,10,1090,CENTRO DE ENSINO MÉDIO URSO BRANCO,3  AVENIDA AREA ESPECIAL 04 - NÚCLEO BANDEIRANTE,13,-15.8722555,-47.9691052
DF,10,1104,ESCOLA CLASSE N 3,3 AVENIDA AE 06 LOTES H/N,7,-15.8742001,-47.9739772
DF,10,1120,CENTRO EDUCACIONAL DA CANDANGOLANDIA,SPMS QR 1 CONJUNTO G LOTE 59 - CANDANGOLANDIA,12,-15.8540878,-47.9546559
DF,10,1139,ESCOLA CLASSE 02 DA CANDANGOLÂNDIA,EQ 02/03  AE - CANDANGOLÂNDIA,9,-15.8524813,-47.9517566
DF,10,1147,CENTRO DE ENSINO FUNDAMENTAL METROPOLITANA,RUA 01 LOTE 06 METROPOLITANA,9,-15.8815853,-47.9748989
DF,10,1155,CENTRO EDUCACIONAL  VARGEM BONITA,NUCLEO HABIT. SUL-AE 01 LOT F-PROX  Q17  PARK WAY VARGEM BONITA 71750,16,-15.9344729,-47.940947
DF,10,1163,ESCOLA CLASSE AGROVILA II,EPCT DF 001 - SENTIDO GAMA/TAGUAT-CAUB II -,4,-15.9393935,-48.0348171
DF,10,1171,CENTRO DE ENSINO MÉDIO 1 DO RIACHO FUNDO I,QUADRA 14 LOTE A,15,-15.8883177,-48.0140958
DF,10,1198,CENTRO DE ENSINO TELEBRASILIA,QN 01 LOTE 01/02 - RIACHO FUNDO I,17,-15.8795278,-48.0058575
DF,10,1201,ESCOLA CLASSE 1 CANDANGOLANDIA,"EQ 05/07, AREA ESPECIAL -CANDANGOLÂNDIA",9,-15.8480242,-47.9513701
DF,10,1210,CENTRO EDUCACIONAL 02  RIACHO FUNDO I,QN 07 AE 1/2,14,-15.8834309,-48.0195577
DF,10,1228,CENTRO EDUCACIONAL INFANTIL DA CANDANGOLANDIA,"QR 1-A, PRAÇA DO BOSQUE",8,-15.8560694,-47.9519622
DF,10,1236,CENTRO DE ENSINO FUNDAMENTAL 01 DO RIACHO FUNDO II,QN 07 LOTE D AREA ESPECIAL 1/2 - RIACHO FUNDO II,11,-15.9019614,-48.0481209
DF,10,1244,ESCOLA CLASSE 1 DO RIACHO FUNDO II,QC 4 CONJ 18 LOTE 2,12,-15.9153795,-48.0461663
DF,10,1252,CENTRO DE EDUCACAO INFANTIL DO RIACHO FUNDO II,QN 14A CONJ 07 AE 1/2,12,-15.8955506,-48.0510886
DF,10,1260,ESCOLA CLASSE VERDE DO RIACHO FUNDO I,SHRF E/Q 2/4 LOTE A QS 4,3,-15.8849527,-48.0147093
DF,10,1279,JARDIM DE INFANCIA 1 DO RIACHO FUNDO II,QN 8-C AE 01,9,-15.9019613,-48.0449812
DF,10,1295,ESCOLA SALESIANA SAO DOMINGOS SAVIO,3 AVENIDA AE 5 LOTE A/F- NÚCLEO BANDEIRANTE,15,-15.8725747,-47.9704784
DF,10,1309,COLEGIO ISAAC NEWTON,QN 07 AREA ESPECIAL 11 RIACHO FUNDO I,10,-15.8808729,-48.0207912
DF,10,1317,ESCOLA CLASSE 2 DO RIACHO FUNDO II,QN 14 CONJUNTO D LOTE A,10,-15.8962384,-48.049543
DF,10,1325,CENTRO EDUCATIVO PASSIONISTA MÃE DA SANTA ESPERANÇA,QN 05 AE 02 - RIACHO FUNDO I,13,-15.8792017,-48.0178609
DF,10,1333,CENTRO DE ENSINO MÉDIO - JULIA KUBITSCHEK,QRO A AE 01,8,-15.8530535,-47.9461364
DF,10,1341,CENTRO DE ENSINO FUNDAMENTAL II,QS 08 AE 02 - RIACHO FUNDO II,11,-15.9377854,-48.0390943
DF,10,1350,CENTRO EDUCACIONAL Nº 1 DO RIACHO FUNDO II,QS 18 AE 02 RIACHO FUNDO II,9,-15.9487028,-48.032624
DF,10,1368,ESCOLA CLASSE 02 DO RIACHO FUNDO I,QN 05 ÁREA ESPECIAL 07 - RIACHO FUNDO I,5,-15.8819836,-48.0154765
DF,10,1384,CENTRO DE EDUCAÇÃO INFANTIL 01 - RF I,"QN 07, AE 10, RIACHO FUNDO I",10,-15.8797689,-48.0218763
DF,10,1392,INSTITUTO FEDERAL DE BRASÍLIA - CAMPUS RIACHO FUNDO,"AVENIDA CEDRO, AE 15, QS 16, FAZENDA SUCUPIRA- RIACHO FUNDO I",5,-15.8809934,-48.0085489
DF,10,1406,COLÉGIO EDUCANDÁRIO DE FÁTIMA,QN 14B CONJ 6 LOTES 19/20 RIACHO FUNDO II,4,-15.8980134,-48.0489503
DF,11,1015,CENTRO DE ENSINO MÉDIO INTEGRADO DO CRUZEIRO - CEMI DO CRUZEIRO,"SRES AREA ESPECIAL F, LOTE G, CRUZEIRO VELHO",14,-15.7832843,-47.9381875
DF,11,1031,CENTRO DE ENSINO FUNDAMENTAL 01,"SRES Q 01, LOTE 05, AREA ESPECIAL, CRUZEIRO VELHO",20,-15.78506,-47.9364083
DF,11,1040,CENTRO DE ENSINO FUNDAMENTAL ATHOS BULCÃO,"SHCES Q. 309, LOTE 01, AREA ESPECIAL, CRUZEIRO NOVO",19,-15.7939191,-47.9417614
DF,11,1058,ESCOLA CLASSE 05,"SHCES Q 201/203, ÁREA ESPECIAL, CRUZEIRO NOVO",10,-15.7986166,-47.9432176
DF,11,1074,ESCOLA CLASSE 04,"SHCES Q. 407, ÁREA ESPECIAL, CRUZEIRO NOVO",10,-15.7960967,-47.9418567
DF,11,1082,ESCOLA CLASSE 06,"SHCES Q 807,  ÁREA ESPECIAL, CRUZEIRO NOVO",15,-15.7940853,-47.9376596
DF,11,1090,ESCOLA CLASSE 08,"AOS 06/08,  ÁREA ESPECIAL, OCTOGONAL",18,-15.8031455,-47.9454055
DF,11,1104,ESCOLA CLASSE DA VILA DO RCG,"VILA DO RCG, RUA C, ÁREA ESPECIAL, S/N",4,-15.7623762,-47.949789
DF,11,1112,ESCOLA CLASSE SMU,"QRO, AREA ESPECIAL, SETOR MILITAR URBANO",8,-15.7747777,-47.9313236
DF,11,1120,CENTRO EDUCACIONAL 02,"SHCES Q 805, LOTE 02,  ÁREA ESPECIAL, CRUZEIRO NOVO",20,-15.7966038,-47.9386976
DF,11,1139,CANDANGUINHO - PUERI (ATUAL MAPLE BEAR ),"EQSW 303/304, SETOR SUDOESTE",21,-15.8007184,-47.9278
DF,11,1147,COLÉGIO DROMOS,"SQSW/EQSW 303/304, LOTE 03, SETOR SUDOESTE",12,-15.7961321,-47.9230394
DF,11,1155,COLEGIO SOMA,"SHCES Q 609, LOTE 01, CRUZEIRO NOVO",10,-15.7932485,-47.9387536
DF,11,1163,COLEGIO CIMAN,"SH/AOS ENTRE AREAS 01/04, LOTE 08, OCTOGONAL",29,-15.8074155,-47.9400421
DF,11,1171,CASA THOMAS JEFFERSON,"SHCSW/EQSW 301/302, LOTE 02, SETOR SUDOESTE",20,-15.7961321,-47.9230394
DF,11,1180,ESCOLA CANADENSE DE BRASÍLIA ( ANTIGA MAPLE BEAR ),"SIG QUADRA 08, LOTE 2225, PARTE F, SIG",16,-15.7956629,-47.9149925
DF,13,1015,CENTRO DE ENSINO FUNDAMENTAL 404,QS 404 AREA ESPECIAL 01,15,-15.86658694,-48.08424866
DF,13,1031,ESCOLA CLASSE 403,QN 403/405  AREA ESPECIAL,14,-15.8736133,-48.0980085
DF,13,1040,ESCOLA CLASSE 111,QS 111 AREA ESPECIAL 10,10,-15.88556735,-48.10530177
DF,13,1147,ESCOLA CLASSE 325,QR 325 AREA ESPECIAL 01,16,-15.89731092,-48.12273874
DF,13,1155,ESCOLA CLASSE 407,QR 407/409 AE 01,15,-15.87460257,-48.10362911
DF,13,1201,ESCOLA CLASSE 431,QS 431 AE 01,18,-15.8954867,-48.1437081
DF,13,1244,CENTRO DE ENSINO FUNDAMENTAL 312,QS 312  CONJUNTO 05 LOTE 01,18,-15.87652147,-48.06866084
DF,13,1317,ESCOLA CLASSE 108,QS 108/110 AE 01,20,-15.87260108,-48.07492325
DF,13,1325,CENTRO DE ENSINO FUNDAMENTAL 120,QN 120/122 CONJUNTO 04 LOTE 01,15,-15.86960454,-48.05957315
DF,13,1341,ESCOLA CLASSE 303,QR 303 CONJUNTO 12,12,-15.88236779,-48.09415071
DF,13,1376,ESCOLA CLASSE 614,QR 614 AREA ESPECIAL 01,10,-15.85354464,-48.07448942
DF,13,1414,CENTRO DE ENSINO MÉDIO 414,QS 414 AE 01,18,-15.8592456,-48.07184764
DF,13,1422,ESCOLA CLASSE 604,QS 604 AE,12,-15.8613165,-48.08773311
DF,13,1430,CENTRO DE ENSINO FUNDAMENTAL 619,QS 619 AE 01,9,-15.8791115,-48.12255992
DF,13,1449,ESCOLA CLASSE 318,QN 318 CONJUNTO 04 LOTE 01,15,-15.87575173,-48.06300104
DF,13,1457,ESCOLA CLASSE 121,QS 121 CONJUNTO 01 LOTE 01,13,-15.89270703,-48.12055522
DF,13,1538,CENTRO EDUCACIONAL MYRIAM ERVILHA,DF 280 KM 14 - SAMAMBAIA,14,-15.9407055,-48.2417339
DF,13,1546,CENTRO DE ENSINO MÉDIO 304,QR 304 CONJUNTO 04 LOTE 01,16,-15.87945762,-48.07929964
DF,13,1554,CENTRO DE EDUCAÇÃO INFANTIL 307,QR 307 CONJUNTO 08 AE 01,10,-15.88544177,-48.09946332
DF,13,1562,CENTRO DE ENSINO FUNDAMENTAL 427,QN 427 AE 2,15,-15.8925939,-48.13831766
DF,13,1570,CAIC AYRTON SENNA,QR 117 SETOR URBANO,11,-15.89009684,-48.11206434
DF,13,1589,ESCOLA CLASSE 419,QS 419 AE 01,12,-15.88493224,-48.11953613
DF,13,1597,CAIC HELENA REIS,QR 409 AE 01,17,-15.87703602,-48.10536157
DF,13,1600,CCI SÊNIOR,QN 401 CONJUNTO D LOTES 01/02,27,-15.86689032,-48.0958247
DF,13,1619,CENTRO DE ENSINO 412,QN 412 AREA ESPECIAL 01,14,-15.85682127,-48.07515165
DF,13,1627,ESCOLA CLASSE 831,QR 831 LOTE 01,1,-15.8877233,-48.1477062
DF,13,1660,CENTRO DE EDUCAÇÃO INFANTIL 210,QN 210 AE - SAMAMBAIA NORTE,14,-15.8584585,-48.0756280
DF,13,1678,CENTRO DE ENSINO FUNDAMENTAL 411,QN 411 AE SETOR NORTE - SAMAMBAIA NORTE,15,-15.8773304,-48.1096840
DF,13,1686,CENTRO EDUCACIONAL 123,QR 123 AE SETOR SUL - SAMAMBAIA SUL,15,-15.8933101,-48.1229451
DF,14,1015,CENTRO DE ENSINO FUNDAMENTAL 102 NORTE,SQN 102 A/E,8,-15.7819276,-47.8828857
DF,14,1023,CENTRO DE ENSINO FUNDAMENTAL 104 NORTE,SQN 104,7,-15.7749367,-47.883605
DF,14,1031,CENTRO EDUCACIONAL LEONARDO DA VINCI,SGAN 914 CONJUNTO I,29,-15.7462345,-47.9003217
DF,14,1040,COLEGIO SANTA DOROTEIA,SGAN 911 MODULO B,17,-15.7577851,-47.8995811
DF,14,1058,ESCOLA CLASSE 113 NORTE,SQN 113 A/E,9,-15.7477059,-47.8904828
DF,14,1074,SIGMA (ANTIGO INEI),SGAN 606 A/E MODULO A,17,-15.7690141,-47.8749953
DF,14,1082,COLEGIO MARISTA JOAO PAULO II,SEPN 702 LOTE B,12,-15.78208,-47.8879417
DF,14,1090,ESCOLA CLASSE 304 NORTE,SQN 304,7,-15.7766245,-47.886099
DF,14,1104,ESCOLA CLASSE 415 NORTE,SQN 415,5,-15.7396445,-47.8864426
DF,14,1112,ESCOLA CLASSE 312 NORTE,SQN 312,7,-15.7524201,-47.8928102
DF,14,1120,CENTRO DE EDUCACAO INFANTIL 316 NORTE,SQN  316,9,-15.739048,-47.8964001
DF,14,1139,ESCOLA CLASSE 403 NORTE,SQN 403 A/E,8,-15.7775358,-47.8758473
DF,14,1147,ESCOLA CLASSE 405 NORTE,SQN 405 A/E,6,-15.7708013,-47.8766153
DF,14,1155,ESCOLA CLASSE 407 NORTE,SQN 407 A/E,5,-15.7623758,-47.8788083
DF,14,1163,CENTRO DE ENSINO FUNDAMENTAL 410 NORTE,SQN 410 A/E,8,-15.7552862,-47.8814252
DF,14,1171,ESCOLA CLASSE 411 NORTE,SQN 411 ÁREA ESPECIAL,7,-15.7529585,-47.8820416
DF,14,1201,IESB - INSTITUTO DE EDUCACAO SUPERIOR DE BRASILIA,SGAN 609 MODULO D,18,-15.7575555,-47.8782928
DF,14,1236,CENTRO EDUCACIONAL GISNO,SGAN 907 MODULO A,13,-15.769193,-47.8943992
DF,14,1317,UNICEUB,SEPN 707/907,33,-15.7669262,-47.8931509
DF,14,1333,FUNDACAO LOGOSOFICA,HCGN 704 A/E,8,-15.7766647,-47.8904068
DF,14,1384,ESCOLA CLASSE 115 NORTE,SQN 115,8,-15.7412867,-47.8926141
DF,14,1406,COLEGIO MADRE CARMEN SALLES,SGAN 604 LOTE D,8,-15.7748356,-47.8742135
DF,14,1457,COLÉGIO IDEAL,SGAN 916 MODULO B,11,-15.7417805,-47.9018561
DF,14,1465,CENTRO DE ENSINO MEDIO PAULO FREIRE,SGAN 610 MODULO A,6,-15.7558737,-47.8786147
DF,14,1481,CEAN - CENTRO DE ENSINO MEDIO ASA NORTE,SGAN 606 MODULO G/H,8,-15.7666951,-47.8754442
DF,14,1490,CENTRO DE ENSINO FUNDAMENTAL 7 DE BRASILIA,SGAN 912 MODULO A/B,12,-15.7550554,-47.8986904
DF,14,1562,UNB - PAVILHAO JOAO CALMON,CAMPUS UNIVERSITARIO DARCY RIBEIRO,5,-15.75865,-47.8703298
DF,14,1570,ESCOLA DNA,EQN 204/404 LOTE C,7,-15.7741556,-47.8776702
DF,14,1589,COLEGIO SAGRADA FAMILIA,SGAN 906 LOTE C,11,-15.7714947,-47.8926218
DF,14,1619,ESCOLA PARQUE 210 NORTE,EQN 210/211 A/E,8,-15.754144,-47.8833441
DF,14,1651,CENTRO EDUCACIONAL SIGMA,SGAN 910 MÓDULO E,6,-15.7593134,-47.8963548
DF,15,1015,CENTRO EDUCACIONAL Nº 02,EQSA 25/24 QSD 09/11  AE S/N,20,-15.8420733,-48.0474333
DF,15,1023,CEF Nº 15,QSA 03/04 ÁREA ESPECIAL,15,-15.83466363,-48.05442931
DF,15,1058,ESCOLA TÉCNICA DE BRASÍLIA,QS 07 LOTE 02/08 - AVENIDA ÁGUAS CLARAS - VILA AREAL,12,-15.8609371,-48.0280141
DF,15,1090,CEF Nº 8,QNA 52 ÁREA ESPECIAL S/ N,11,-15.81753254,-48.05864278
DF,15,1112,ESCOLA CLASSE N 1,QSC 01 AE 01,3,-15.83603019,-48.06179764
DF,15,1120,CEMAB - CENTRO DE ENSINO MÉDIO AVE BRANCA,QSA 03/05 ÁREA ESPECIAL,24,-15.83575074,-48.05360304
DF,15,1139,CEF Nº 10,QSE 05/07 ÁREA ESPECIAL N 01,13,-15.85672593,-48.0415316
DF,15,1147,ESCOLA CLASSE N 11,QSE 12/14  AE S/N,10,-15.85681992,-48.04410488
DF,15,1180,CENTRO DE EDUCAÇÃO INFANTIL Nº 04 (ESCOLA CLASSE Nº 23),ECNA 01/02 ÁREA ESPECIAL S/ N,6,-15.8269269,-48.0577638
DF,15,1198,CEF Nº 3,EQSA 25/24 QSD 09/11 ÁREA ESPECIAL S/ N,12,-15.8400029,-48.0491548
DF,15,1210,ESCOLA CLASSE 54 (CEF  Nº 18 - ESCOLA NORMAL),QSD 32 ÁREA P/ ESCOLA N 02,10,-15.8536967,-48.048635
DF,15,1228,CENTRO DE ENS MÉDIO Nº 3,QSE 05 ÁREA ESPECIAL N 14,17,-15.8599501,-48.0399327
DF,15,1287,CILT - CENTRO INTERESCOLAR DE LINGUAS DE TAGUATINGA,QSB 02/03 ÁREA ESPECIAL N 03/04,12,-15.83630406,-48.0580709
DF,15,1295,ESCOLA CLASSE ARNIQUEIRA,SMPW 04 CJ 04 LT 05 - COL. AGR. ARNIQUEIRA,5,-15.8621848,-48.0008416
DF,15,1309,CENTRO EDUC STELLA MARIS,SETOR C 07 - PARTE B - AE P/ IGREJA CATÓLICA,18,-15.8322195,-48.0561993
DF,15,1317,ESCOLA LA SALLE,QUADRA 301 ÁREA ESPECIAL S/N,38,-15.8274594,-48.013953
DF,15,1350,CEF Nº 09,QSD AE 02 SETOR D,11,-15.8433285,-48.0496572
DF,15,1384,COLEGIO LEONARDO DA VINCI,QS 03 RUA 420 LOTE 02,37,-15.8477288,-48.0413271
DF,15,1392,ESCOLA CLASSE VILA AREAL,QS 06 CONJUNTO 430,8,-15.859955,-48.025274
DF,15,1414,UNIPLAN -CENTRO UNIVERSITÁRIO PLANALTO DO DISTRITO FEDERAL,"AVENIDA PAU BRASIL, LOTE 2 - ÁGUAS CLARAS - DISTRITO FEDERAL",36,-15.8385399,-48.0264639
DF,15,1422,CENTRO DE EDUCAÇÃO INFANTIL,"QS 11, A/E 01 - AREAL(ÁGUAS CLARAS) - DISTRITO FEDERAL",8,-15.87068176,-48.01508192
DF,15,1449,CENTRO UNIVERSITARIO EURO AMERICANO - UNIEURO,AVENIDA CASTANHEIRAS LOTE 370,41,-15.8322424,-48.037452
DF,15,1457,CENTRO EDUCACIONAL CATOLICA DE BRASILIA,QS 07 LOTE 1 EPCT - TAGUATINGA SUL,24,-15.8627607,-48.0330119
DF,15,1465,COLÉGIO MARISTA - ÁGUAS CLARAS,RUA TAMBORIL LOTE 1,20,-15.83691175,-48.00788996
DF,15,1473,ESCOLA CLASSE 19 DE TAGUATINGA,"QNA 39, A/E",4,-15.82275654,-48.05683838
DF,15,1481,CENTRO EDUCACIONAL SIGMA,"RUA 14 SUL, LOTE 06",17,-15.8387381,-48.0190753
DF,15,1490,ESCOLA ATUAL,"QUADRA 204, LOTE 01",10,-15.8405492,-48.01785507
DF,15,1538,COLÉGIO OLIMPO LTDA,"RUA 7 SUL, LOTE 04",10,-15.8364575,-48.0134833
DF,15,1562,FACULDADE PROCESSUS - CAMPUS II,AVENIDA ARAUCÁRIAS N. 4400,9,-15.83388909,-48.04531519
DF,15,1600,COLÉGIO IDEAL,AVENIDA JEQUITIBÁ N. 325,15,-15.84045103,-48.0372573
DF,15,1619,COLÉGIO VISÃO,"RUA 25 NORTE, LOTE 04",6,-15.8376554,-48.0304727
DF,15,1627,COLÉGIO IDEAL - ENSINO MÉDIO,"AVENIDA ARARIBÁ, LOTE 1",10,-15.8455684,-48.0292938
DF,15,1635,COLÉGIO CEAV JR,"RUA MANACÁ, LOTE 2, LOJA 01 A 14",11,-15.8348401,-48.0088423
DF,15,1643,COLÉGIO ANCHIETA - TAGUATINGA,"QSC 19, QUADRA 27 CONJUNTO A, LOTE 16, ST DE CHÁCARAS - PRIMAVERA, TA",1,-15.8510296,-48.0656652
DF,15,1651,CEUB - ÁGUAS CLARAS,RUA 214 LOTE 1/17 QS 01 TAGUATINGA SUL - DF,5,-15.7921585,-47.9665458
DF,16,1040,ESCOLA CLASSE 61,QNQ 4 LOTE A SETOR Q,16,-15.8051236,-48.1440238
DF,16,1058,ESCOLA CLASSE 16,EQNO 04/06 - SETOR O,10,-15.7904867,-48.1210086
DF,16,1066,ESCOLA CLASSE 17,EQNO 01/03 - SETOR O,13,-15.7974429,-48.123092
DF,16,1074,CENTRO EDUCACIONAL 14 (ANTIGO CE 15),EQNO 11/13 - SETOR O,20,-15.7938996,-48.1295468
DF,16,1082,ESCOLA CLASSE 33,EQNO 13/15 - SETOR O,17,-15.7884434,-48.1313352
DF,16,1090,CENTRO DE ENSINO FUNDAMENTAL 26 (ANTIGA EC 30),EQNO 5/7 - SETOR O,15,-15.7864591,-48.1262056
DF,16,1104,ESCOLA CLASSE 62,QNQ 01 - AREA ESPECIAL,14,-15.8039749,-48.139221
DF,16,1120,ESCOLA CLASSE 34,EQNP 17/13 - SETOR P NORTE,14,-15.80701092,-48.13091543
DF,16,1139,CENTRO DE ENSINO FUNDAMENTAL 12,EQNO 02/04 - SETOR O,11,-15.7959858,-48.1194171
DF,16,1147,ESCOLA CLASSE 31,EQNO 09/11 - SETOR O,16,-15.7990799,-48.1275362
DF,16,1155,CENTRO DE ENSINO FUNDAMENTAL 31 (ANTIGO CE 17 E 53),EQNO 17 CONJUNTO H LOTE 02 - EXPANSÃO SETOR O,15,-15.7982256,-48.1342658
DF,16,1163,CENTRO DE ENSINO MÉDIO 09,EQNO 03/05 SETOR O,16,-15.7917034,-48.124321
DF,16,1171,CENTRO DE ENSINO FUNDAMENTAL BOA ESPERANÇA,BR 070 - DF 180/190 FAZENDA CACHOEIRA NUCLEO RURAL BOA ESPERANCA,3,-15.8284845,-48.2466984
DF,16,1180,CENTRO DE ENSINO FUNDAMENTAL 30,AREA ESPECIAL FRENTE MODULO 07 -  CONDOMINIO PRIVE,11,-15.7858267,-48.1380054
DF,16,1198,CENTRO EDUCACIONAL INCRA 09,NRAG - NUCLEO RURAL ALEXANDRE GUSMAO KM 16 BR 070 INCRA 09,5,-15.7842501,-48.1939626
DF,16,1210,ESCOLA CLASSE 38,EQNP 15/19 - AREA ESPECIAL - SETOR P NORTE,10,-15.80855613,-48.13537108
DF,16,1228,CENTRO DE ENSINO MEDIO 12,QNP 13 - AREA ESPECIAL - SETOR P NORTE,5,-15.80943551,-48.13025988
DF,16,1236,ESCOLA CLASSE 55,EQNO 19/20 - CONJUNTO C -  ÁREA ESPECIAL - EXPANSÃO SETOR O,7,-15.7904767,-48.1421501
DF,16,1244,ESCOLA CLASSE 56,EQNO 18 CONJUNTO I LOTE 2 - EXPANSÃO DO SETOR O,8,-15.7940781,-48.136502
DF,16,1252,CENTRO DE ENSINO FUNDAMENTAL 34 (ANTIGA EC 60),QNO 19 CONJUNTO B LOTE 01 - EXPANSÃO DO SETOR O,11,-15.7944009,-48.1386352
DF,16,1260,CENTRO EDUCACIONAL 16 (ANTIGO CEF 24),QNQ 03,11,-15.8042868,-48.1434156
DF,16,1279,ESCOLA CLASSE 65,QNR 02 - ÁREA ESPECIAL 04,11,-15.8063304,-48.1601555
DF,16,1287,CENTRO DE ENSINO FUNDAMENTAL 27,QNR 01 AREA ESPECIAL03,15,-15.8056056,-48.1507898
DF,16,1295,CENTRO DE ENSINO FUNDAMENTAL 28,QNP 21 AREA ESPECIAL - SETOR HABITACIONAL SOL NASCENTE,6,-15.8114953,-48.1395604
DF,16,1309,ESCOLA CLASSE DO SETOR P NORTE,RUA DA CASCALHEIRA S/N - VC 311,3,-15.8318172,-48.1380688
DF,16,1317,ESCOLA CLASSE 66,AV.CORREGO DAS CORUJAS S/N - SETOR HABITACIONAL SOL NASCENTE TRECHO 3,17,-15.8180748,-48.1534937
DF,16,1325,CENTRO  EDUCACIONAL 02,PRACA DO LAÇO - SETOR NORTE,9,-15.6813064,-48.1978699
DF,16,1333,ESCOLA CLASSE N. 05 - GB,AE N. 01,4,-15.6876376,-48.1915164
DF,16,1341,ESCOLA CLASSE  ALMECEGAS,ZONA RURAL FAZ. ALMECEGAS BR-080 - DF 206 VC 505,2,-15.5388316,-48.1687854
DF,16,1350,CENTRO EDUCACIONAL 04 (CURRALINHO),"BR 080 KM 37 FAZ. CURRALINHO, ESTRADA DE PADRE BERNARDO",2,-15.5343677,-48.1905073
DF,16,1368,CENTRO DE ENSINO ESPECIAL - CENEBRAZ,EQ 2/4 LOTE A - SETOR NORTE,8,-15.6812593,-48.1917477
DF,16,1376,ESCOLA CLASSE POLO AGRICOLA TORRE,ZR - DF 001 (EPCT) DF 430/415 KM 06,3,-15.6268943,-48.1201404
DF,16,1384,ESCOLA CLASSE N 03,EQ 6/8,8,-15.6770577,-48.1928985
DF,16,1392,ESCOLA CLASSE N 01,AE N 03,6,-15.6817622,-48.2019094
DF,16,1406,ESCOLA CLASSE N. 01 - INCRA 08,INCRA 08 - QUADRA 18 LOTE 01,7,-15.7402407,-48.1702771
DF,16,1414,CENTRO DE CONVIVÊNCIA BRAZLÂNDIA CENTRAL (COSE),AE 01 LOTE K/L/M/N - SETOR NORTE,2,-15.6826374,-48.1973122
DF,16,1422,ESCOLA CLASSE 07,Q. 38 AE N. 02,8,-15.6649246,-48.2020794
DF,16,1430,ESCOLA CLASSE 09,EQ 45/55 - VILA SÃO JOSÉ,9,-15.6585428,-48.1907291
DF,16,1449,ESCOLA CLASSE N. 06,QD. 38 AE N. 01,6,-15.6647862,-48.2009197
DF,16,1457,CENTRO INTERESCOLAR DE LINGUAS DE BRAZLANDIA - CILB,ÁREA ESPECIAL 07 QUADRA 02 - SETOR TRADICIONAL,9,-15.6859633,-48.2019204
DF,16,1465,CENTRO DE ENSINO FUNDAMENTAL N. 01,"PIQ( PROGRAMA DE INTEGRAÇÃO DE QUADRAS) Q. 06 LT. 02, SETOR VEREDAS",11,-15.6665298,-48.2008045
DF,16,1473,CENTRO DE ENSINO FUNDAMENTAL VENDINHA,BR - 080 KM 25 ESTRADA DE BRAZLÂNDIA PARA PADRE BERNARDO,2,-15.6211036,-48.1993693
DF,16,1481,ESCOLA CLASSE RURAL CHAPADINHA,"ZR - DF 240 (DF 008) DF 445, 4 KM ESQ.",3,-15.675223,-48.1516032
DF,16,1490,CENTRO DE ENSINO MEDIO N. 01,QD. 04 AE N. 02,11,-15.6878186,-48.1959467
DF,16,1503,ESCOLA CLASSE INCRA 06,"ZR - ROD. DF 180, KM 06 (DCAG), N.R.ALEX. GUSMAO",3,-15.7284949,-48.1925705
DF,16,1511,CENTRO DE EDUCACAO INFANTIL 01 DE BRAZLANDIA,"PIQ 05, LOTE 01, SETOR VEREDAS",4,-15.667385,-48.19872
DF,16,1520,ESCOLA CLASSE BUCANHAO,"ZR-DF-240-ACESSO P/VSJ, KM 3,7",2,-15.636873,-48.1696093
DF,16,1538,CENTRO EDUCACIONAL IRMÃ MARIA REGINA VELANES RÉGIS,"ZR DF 001 (EPCT) DF 430, RODEADOR",4,-15.6753482,-48.1030879
DF,16,1546,CENTRO ENSINO MÉDIO Nº 02,"QUADRA 36 AE 03, VILA SÃO JOSÉ",11,-15.6662732,-48.1966249
DF,16,1554,CENTRO DE ENSINO FUNDAMENTAL N. 02,QUADRA 12 ÁREA ESPECIAL 05 - SETOR NORTE,6,-15.6723033,-48.1943117
DF,16,1562,CENTRO DE ENSINO FUNDAMENTAL- INCRA 08,"ZR - DF 070, DF 180 - ALEXANDRE GUSMAO",8,-15.7437574,-48.1701261
DF,16,1570,ESCOLA CLASSE  INCRA 07,"ZR - DF 249 - DF 008, N.R.ALEX. GUSMAO",2,-15.7489835,-48.11491
DF,16,1589,CAIC - PROFESSOR BENEDITO CARLOS DE OLIVEIRA,AE 05 - SETOR TRADICIONAL,3,-15.6780636,-48.2033573
DF,16,1597,CENTRO DE ENSINO FUNDAMENTAL N. 03,"AE - QUADRA 046, VILA SÃO JOSÉ",11,-15.6589056,-48.1956998
DF,16,1600,ESCOLA CLASSE 08,Q. 04 LOTE 01,8,-15.670665,-48.2022223
DF,16,1619,CONGREGAÇÃO IRMÃS OBLATAS DO MENINO JESUS,AE N. 02 LT. M/N,4,-15.6725622,-48.1921784
DF,17,1015,CENTRO INTERESCOLAR DE LINGUAS - CIL,E Q 16/18  A E  SETOR CENTRAL TEL 484 8226,17,-16.0183809,-48.0685368
DF,17,1023,ESCOLA CLASSE 22 DO GAMA,EQ 33/49  A.E. S.CENTRAL,10,-16.0230741,-48.0669887
DF,17,1031,CENTRO DE ENSINO FUNDAMENTAL 01 DO GAMA,EQ 1/2 A.E. SETOR NORTE,19,-16.0067935,-48.0620946
DF,17,1040,CENTRO DE ENSINO MEDIO 02,LOTE 27/36 A.E. S.CENTRAL LADO OESTE,27,-16.0149,-48.070045
DF,17,1058,CEF 10,EQ 16/26 E 19/22 A.E. S.OESTE,20,-16.0142508,-48.0749407
DF,17,1066,CEMI,EQ 12/16  A.ESPECIALSETOR OESTE,6,-16.0106559,-48.0745827
DF,17,1074,CEM 03,EQ 5/11 A.E. SETOR SUL,14,-16.0365983,-48.0639047
DF,17,1082,ESCOLA CLASSE 09,Q 03 AE SETOR SUL,15,-16.0306621,-48.0657951
DF,17,1090,CEF 11,QUADRA 1 A.E. S.SUL,17,-16.0279286,-48.0695101
DF,17,1104,CED 08 - CENTRO EDUCACIONAL 08,E Q 4/10 A.E.SETOR SUL,20,-16.0229464,-48.0784798
DF,17,1112,CEF 08,Q 02 AREA ESPECIAL SETOR SUL,12,-16.0257018,-48.0737357
DF,17,1120,CENTRO EDUCACIONAL ENGENHO DAS LAJES,BR 060 KM 30 - RODOVIA BSB/GOIANIA,4,-16.0418122,-48.2578786
DF,17,1139,CENTRO EDUCACIONAL 07,EQ 15/17 - PRACA  01 LOTE 03,13,-16.0202621,-48.0651314
DF,17,1147,ESCOLA CLASSE 02,EQ 02/04 AREA ESPECIAL SETOR OESTE,13,-16.0051649,-48.0721947
DF,17,1155,ESCOLA CLASSE 10,EQ 10/21 AREA ESPECIAL SETOR OESTE,9,-16.0081809,-48.078978
DF,17,1163,ESCOLA CLASSE 15,QUADRA 02 AREA ESPECIAL SETOR NORTE,6,-16.0036568,-48.061133
DF,17,1171,ESCOLA CLASSE 29,EQ 13/15 AE SETOR SUL,6,-16.0405416,-48.0588518
DF,17,1180,CENTRO EDUCACIONAL CASA GRANDE,N RURAL CASA GRANDE CH 16 SETOR DE CHACARAS NORTE,7,-15.9638931,-48.0991603
DF,17,1198,CENTRO DE ENSINO ESPECIAL DO GAMA,EQ. 55/56 AE 02 SETOR CENTRAL,4,-16.0146384,-48.062947
DF,17,1210,CEF 05,EQ 26/29 AREA ESPECIAL SETOR OESTE,15,-16.0157625,-48.0783499
DF,17,1244,ESCOLA CLASSE 28,QUADRA A LOTE B VILA RORIZ SETOR OESTE,5,-16.0071482,-48.0829789
DF,17,1287,JARDIM DE INFÂNCIA 05,QUADRA 10 - ÁREA ESPECIAL,4,-16.0263332,-48.0804741
DF,17,1333,ESCOLA CLASSE 01 DO GAMA,EQ 18/21 PR. 2 A.E. S.LESTE,16,-16.0174552,-48.0548111
DF,17,1341,ESCOLA CLASSE 21 DO GAMA,E Q 44/45 A.E S.LESTE,7,-15.9993494,-48.055489
DF,17,1350,ESCOLA CLASSE 19 DO GAMA,E/Q 30/49 A.E SETOR LESTE,9,-16.025339,-48.0507097
DF,17,1368,ESCOLA CLASSE 03 DO GAMA,E/Q 10/15 - AE SETOR LESTE,10,-16.0143417,-48.0510828
DF,17,1376,CENTRO DE ENSINO MEDIO 01 DO GAMA,E/Q 18/21 AREA ESPECIAL - SETOR LESTE,23,-16.0184553,-48.0539917
DF,17,1384,CENTRO EDUCACIONAL 06 DO GAMA,EQ 02/07 A.E. S.LESTE,15,-16.0074737,-48.0504479
DF,17,1392,CENTRO ENSINO FUNDAMENTAL 04 DO GAMA,E Q 29/33  PR 03 A E. SETOR LESTE,20,-16.0271681,-48.0564576
DF,17,1406,ESCOLA CLASSE 14 DO GAMA,E/Q 29/33 AE SETOR LESTE,11,-16.0269509,-48.0553695
DF,17,1414,CENTRO DE ENSINO FUNDAMENTAL 03 DO GAMA,E Q 6/11 A. E.S.LESTE,15,-16.0109667,-48.05077
DF,17,1422,UNICEPLAC - CENTRO UNIV. DO PLANALTO CENTRAL APPARECIDO DOS SANTOS,SIGA A.E. 02 SETOR LESTE INDÚSTRIA,4,-16.0016073,-48.0508405
DF,18,1015,ESCOLA CLASSE VILA DO BOA,VILA DO BOA SEM NUMERO  SAO SEBASTIAO,5,-15.877915,-47.7911474
DF,18,1023,CENTRO DE ENSINO FUNDAMENTAL NOVA BETANIA,BR 251  KM 38  NOVA BETANIA,6,-15.9495084,-47.7931446
DF,18,1031,ESCOLA CLASSE 303,QD 303 CONJ 01 LOTE 34,15,-15.9033309,-47.7820688
DF,18,1040,ESCOLA CLASSE VILA NOVA,RUA 31 NUMERO 200 BAIRRO SÃO JOSÉ,14,-15.9134932,-47.7594672
DF,18,1058,CENTRO EDUCACIONAL DO LAGO SUL - CEL,SHIS QI 09 AREA ESPECIAL,13,-15.8390135,-47.8767217
DF,18,1066,CENTRO DE ENSINO FUNDAMENTAL 06 DE BRASÍLIA,"SHIS QI 15 AREA ESPECIAL 02 - LAGO SUL, BRASÍLIA - DF",10,-15.8559027,-47.8776218
DF,18,1074,CCIP - CENTRO DE CONVENÇÕES ISRAEL PINHEIRO,SHDB QL 32 CJ 01 BL B,10,-15.7956216,-47.7996375
DF,18,1082,ESCOLA CLASSE CERAMICA DA BENCAO,RUA DA GAMELEIRA 331 CENTRO,14,-15.9045722,-47.7695692
DF,18,1090,CENTRO DE ENSINO FUNDAMENTAL CERÂMICA SÃO PAULO,"RUA 01, LT 101, SETOR TRADICIONAL",15,-15.8878014,-47.7790286
DF,18,1104,CAIC UNESCO,QUADRA 05 CONJ.A ÁREA ESPECIAL 1,29,-15.9019729,-47.7739064
DF,18,1112,ESCOLA CLASSE AGROVILA,QUADRA 100 - CONJ. Q - AREA ESPECIAL N. 01BAIRRO VILA NOVA,12,-15.9107142,-47.7585786
DF,18,1120,CENTRO EDUCACIONAL SAO JOSE,QUADRA 16 AREA ESPECIAL BAIRRO SAO JOSE,14,-15.9126381,-47.7595262
DF,18,1139,CENTRO DE ENSINO MÉDIO 01 - CENTRÃO,QUADRA 202/203 AREA ESPECIAL -RESIDENCIAL OESTE,20,-15.9014625,-47.7792896
DF,18,1147,COLÉGIO PRESBITERIANO MACKENZIE,SHIS QI 05 CHACARA 74/79,26,-15.8502719,-47.8973719
DF,18,1155,ESCOLA CLASSE 104,QUADRA 104 CJ. 01 LOTE 01 BAIRRO RESIDENCIAL OESTE SAO SEBASTIAO,14,-15.896373,-47.7828464
DF,18,1163,CENTRO EDUCACIONAL DO PAD/DF,"BR-251, KM-07, ESTRADA DE UNAI ¿ DF",11,-16.0097699,-47.5570345
DF,18,1171,ESCOLA DAS NACOES,SHIS QI 21 AREA ESPECIAL CONJUNTO 01,24,-15.8534531,-47.8504287
DF,18,1180,COLÉGIO NOSSA SENHORA DO PERPÉTUO SOCORRO,SHIS EQL 06/08 CONJUNTO A1,15,-15.8421315,-47.8961035
DF,18,1198,COLEGIO MARIA IMACULADA,SHIS QI 05 CHACARA 72,7,-15.8521668,-47.8982645
DF,18,1201,CENTRO DE ENSINO FUNDAMENTAL DO BOSQUE,"ÁREA INSTITUCIONAL Nº 02, RESIDENCIAL DO BOSQUE - SÃO SEBASTIÃO, D",14,-15.9051513,-47.7568029
DF,18,1210,ESCOLA CLASSE 01 SHI SUL - LAGO SUL,SHIS QI 05 CONJUNTO 17 LOTE 15,8,-15.8478298,-47.8928187
DF,18,1236,ESG ESCOLA SUPERIOR DE GUERRA,RODOVIA DF 001 KM 27,31,-15.8667707,-47.8249422
DF,18,1244,ESCOLA CLASSE BELA VISTA,RUA 01 LT 221- BAIRRO BELA VISTA,8,-15.9135703,-47.7548824
DF,18,1252,CENTRO EDUCACIONAL SAO BARTOLOMEU,AE QUADRA 02 CONJUNTO 03 LOTE 04,16,-15.8937925,-47.7788185
DF,18,1260,ESCOLA MASTER II,QUADRA 25 LOTE 01/04 VILA SAO JOSE,7,-15.9078679,-47.7619638
DF,18,1279,COLÉGIO MODELO DE SÃO SEBASTIÃO,RUA 9 QUADRA 01 CONJUNTO A CHACARA 07 VILA NOVA,7,-15.9039048,-47.7618392
DF,18,1287,CIEIC - CENTRO INTEGRADO IRMAOS CARVALHO,SH ESTRADA DO SOL COND. MANSÕES SERRANA KM 5 CHÁCARA IRMÃOS CARVALH,9,-15.8671215,-47.7867143
DF,18,1295,KINGDOM SCHOOL,"SHIS QI 11 ÁREA ESPECIAL B, ENTRECONJUNTOS 02 E 04",7,-15.8333225,-47.8708438
DF,18,1309,COLÉGIO DOM JOSÉ,"SHIS QI 26, CJ H, ÁREA ESPECIAL - LAGO SUL, BRASÍLIA-DF",11,-15.8241102,-47.8067134
DF,18,1317,CENTRO DE ENSINO FUNDAMENTAL JARDIM II,DF 285 KM 20 NÚCLEO RURAL JARDIM II,2,-16.0169475,-47.3805075
DF,18,1341,CENTRO EDUCACIONAL SÃO FRANCISCO - CHICÃO,"QUADRA 17, LOTE 100, ÁREA ESPECIAL",10,-15.9146224,-47.7629232
DF,18,1350,CENTRO DE ENSINO FUNDAMENTAL MIGUEL ARCANJO,"QD 02, AE 03, BAIRRO SÃO BARTOLOMEU, SÃO SEBASTIÃO, BRASÍLIA - DF",8,-15.892431,-47.7814225
DF,18,1368,ESCOLA CLASSE CAFÉ SEM TROCO,"DF-130, KM 32, BRASÍLIA - DF",6,-15.9192124,-47.6055003
DF,18,1376,ESCOLA FRANCESA FRANÇOIS MITTERRAND,SHIS QI 21 BLOCO D,10,-15.8556236,-47.8528503
DF,18,1406,COLÉGIO DIGITAL,"PRAÇA DE ATIVIDADES PA 02, LOTE 04, JARDIM MANGUEIRAL",7,-15.8902177,-47.8130485
DF,18,1414,ESCOLA CLASSE LAMARÃO,"BR 251, KM 07, DF 285, VC 441, COLÔNIA AGRÍCOLA LAMARÃO, PARANOÁ",1,-15.9651946,-47.5010283
DF,19,1015,ESCOLA CLASSE N 27,ECNF 01/QNF 19     AE,13,-15.8129134,-48.0683878
DF,19,1023,ESCOLA CLASSE N 12,QNH 06 AREA ESPECIAL,10,-15.8061086,-48.0799564
DF,19,1031,CENTRO DE ENSINO DO SESI,QNF 24 AREA ESPECIAL S/N,16,-15.8125258,-48.0725219
DF,19,1040,ESCOLA CLASSE VICENTE PIRES,COLÔNIA AGRÍCOLA VICENTE PIRES - AREA ESPECIAL N 01,8,-15.8131137,-48.0144548
DF,19,1058,ESCOLA CLASSE N 39,QNC 15 AREA ESPECIAL N 15,4,-15.8252025,-48.0677586
DF,19,1066,ESCOLA CLASSE N 16,EQNG 06/07 AREA ESPECIAL N 15,10,-15.7963881,-48.0600072
DF,19,1074,COLEGIO JESUS MARIA JOSE,QNG 40 AREA ESPECIAL 5/6,14,-15.80394,-48.0731382
DF,19,1082,CENTRO DE ENSINO MEDIO TAGUATINGA NORTE,QNC AREA PARA ESCOLA 01/03,17,-15.819365,-48.0660238
DF,19,1090,CENTRO EDUCACIONAL N 4,EQNG 06/07 AE 20,15,-15.7954465,-48.0574214
DF,19,1104,ESCOLA CLASSE N 8,QNG 12 AREA  ESPECIAL 14,15,-15.8011509,-48.0654599
DF,19,1112,CENTRO DE ENSINO FUNDAMENTAL N 12,QNG 39 AREA ESPECIAL 03,17,-15.8034403,-48.0723786
DF,19,1120,ESCOLA CLASSE N 18,QND 12 LOTE 41 ÁREA ESPECIAL,15,-15.8121926,-48.0594348
DF,19,1139,CENTRO DE EDUCAÇÃO INFANTIL Nº 02 (ESCOLA CLASSE Nº 30),QND 59 ÁREA ESPECIAL Nº 37,9,-15.8002445,-48.0576871
DF,19,1147,FACULDADE PROJECAO,CNB 14 LOTE 07 A 10,17,-15.8210028,-48.0648674
DF,19,1155,CENTRO ENS MÉDIO EIT,QNB 01 AE 01 SETOR CENTRAL,16,-15.8330382,-48.0584267
DF,19,1163,ESCOLA CLASSE N 15,QND 43 LT 23 ÁREA ESPECIAL,9,-15.8058162,-48.0590307
DF,19,1171,CEF Nº 11,CND 05 ÁREA ESPECIAL - PRAÇA DO BICALHO,15,-15.8086697,-48.063291
DF,19,1180,ESCOLA CLASSE N 6,CNB 12 ÁREA ESPECIAL Nº 01,10,-15.8197959,-48.0622391
DF,19,1198,CEF Nº 14,QNB 15 ÁREA ESPECIAL S/ Nº,8,-15.8190207,-48.0636747
DF,19,1201,ESCOLA BILINGUE LIBRAS (ANTIGA ESCOLA CLASSE N 21),EQNH 01/03 AE S/N,9,-15.8024009,-48.0768318
DF,19,1228,COLÉGIO KAIRÓS (ANTIGO INSTITUTO EDUCACIONAL SAGARANA,COLÔNIA AGRÍCOLA VICENTE PIRES RUA 06 CH 255 LT 2/4,13,-15.8086744,-48.0417792
DF,19,1236,ESCOLA CLASSE 02,COLÔNIA AGRÍCOLA VILA SÃO JOSÉ - RUA 11 ÁREA ESPECIAL 01,10,-15.8008992,-48.048815
DF,19,1252,COLÉGIO DJ,"COLÔNIA AGRÍCOLA VICENTE PIRES - RUA 08, CHAC. 207, LOTES 02/04",15,-15.8031726,-48.0418195
DF,19,1260,COLÉGIO IDEAL,"QNG 09/11, LT 01/02",7,-15.8014501,-48.0636285
DF,19,1279,COLÉGIO VITÓRIA RÉGIA (ANTIGO COLÉGIO MAXIMUS),RUA 06 CH. 276,6,-15.8092108,-48.0247176
DF,19,1287,COLÉGIO LICEU,RUA 06 CH 253 LT. A,16,-15.8087619,-48.0398734
DF,19,1295,INSTITUTO EDUCACIONAL MONTESQUIEU,RUA 10 CH 323/1,5,-15.7975627,-48.045581
DF,19,1325,COLÉGIO OBJETIVO - RUA 03,RUA 03 CHÁCARA N 82 LOTE 07/08,18,-15.8130752,-48.0123053
DF,19,1333,COLÉGIO CERTO - RUA 08,RUA 08 CHÁCARA N 229,8,-15.8037181,-48.0210767
DF,19,1341,COLÉGIO VITÓRIA RÉGIA - UNIDADE 1,RUA 6 CHÁCARA 274,14,-15.8087625,-48.0260219
DF,20,1015,ESCOLA CLASSE 52,EQNP 32/36,14,-15.8514925,-48.1210664
DF,20,1023,CENTRO DE ENSINO MEDIO 04,QNN 14  A.E.,11,-15.8315156,-48.1074836
DF,20,1031,CENTRO DE ENSINO FUNDAMENTAL 19,EQNN 18/20,18,-15.82647,-48.1145881
DF,20,1040,ESCOLA CLASSE 24,EQNN 20/22 AE B,11,-15.831522,-48.1118638
DF,20,1058,ESCOLA CLASSE 25,EQNN 22/24,12,-15.8354115,-48.1077363
DF,20,1066,CENTRO DE ENSINO FUNDAMENTAL 11,EQNN 24/26,12,-15.8403592,-48.1044855
DF,20,1074,CENTRO DE ENSINO FUNDAMENTAL 18,QNP 10 A.E.,16,-15.8370785,-48.1156164
DF,20,1082,CENTRO DE ENSINO FUNDAMENTAL 33 (ANTIGA E.C. 44),QNP 12 A.E.,12,-15.8395918,-48.119033
DF,20,1090,CENTRO DE ENSINO ESPECIAL 01,EQNP 10/14,10,-15.8394609,-48.1139212
DF,20,1104,CENTRO EDUCACIONAL 06,QNP 16  A.E,17,-15.8441334,-48.1157958
DF,20,1112,ESCOLA CLASSE 43,EQNP 14/18,13,-15.8438018,-48.1103143
DF,20,1120,ESCOLA CLASSE 46,EQNP 16/20,8,-15.8463831,-48.113906
DF,20,1139,ESCOLA CLASSE 47,EQNP 22/26,14,-15.8407824,-48.1241696
DF,20,1147,ESCOLA CLASSE 50,EQNP 24/28,12,-15.8425435,-48.1279303
DF,20,1155,ESCOLA CLASSE 48,EQNP 26/30,14,-15.8445888,-48.1211523
DF,20,1163,CENTRO DE ENSINO FUNDAMENTAL 14,EQNP 28/32,14,-15.8469065,-48.1244384
DF,20,1171,CENTRO DE ENSINO FUNDAMENTAL 13,EQNP 30/34,14,-15.8492055,-48.1178747
DF,20,1198,CENTRO DE ENSINO FUNDAMENTAL 32 (ANTIGA E.C. 67),SHPS - EQ. 500/700 A.E - COND. POR DO SOL,5,-15.857202,-48.1238753
DF,21,1015,ESCOLA CLASSE 501 DE SAMAMBAIA,QR 501 CONJUNTO 03 LOTE 01,13,-15.8856389,-48.0864424
DF,21,1023,CENTRO DE ENSINO FUNDAMENTAL 405 DO RECANTO DAS EMAS,QD 405 CONJUNTO 15 LOTE 01 AE,12,-15.9131674,-48.0656869
DF,21,1031,CENTRO EDUCACIONAL 104 DO RECANTO DAS EMAS,QUADRA 104 CONJUNTO 08A ÁREA ESPECIAL,19,-15.9005074,-48.0710004
DF,21,1040,CENTRO DE ENSINO FUNDAMENTAL 306 DO RECANTO DAS EMAS,QD 306 AVENIDA MONJOLO LOTE 06 AE,11,-15.9193229,-48.0973269
DF,21,1058,CENTRO DE ENSINO FUNDAMENTAL 115 DO RECANTO DAS EMAS,QUADRA 115 CONJUNTO 7-C LOTE 1 AREA ESPECIAL,15,-15.9251983,-48.1077753
DF,21,1066,ESCOLA CLASSE 317 DE SAMAMBAIA,QR 317 AREA ESPECIAL 3 LOTE 11,13,-15.8911956,-48.1109533
DF,21,1074,CENTRO DE ENSINO FUNDAMENTAL 507 DE SAMAMBAIA,QR 507 CONJUNTO 07 LOTE 1,13,-15.8913446,-48.0976977
DF,21,1082,CENTRO DE ENSINO FUNDAMENTAL 504 DE SAMAMBAIA,QN 504 CONJUNTO 09 AREA ESPECIAL 01,15,-15.8822625,-48.0783151
DF,21,1090,CENTRO DE ENSINO FUNDAMENTAL 802 DO RECANTO DAS EMAS,QD 802  CONJ 21 AE 01 RECANTO DAS EMAS,20,-15.9236094,-48.0514835
DF,21,1104,CENTRO EDUCACIONAL 308 DO RECANTO DAS EMAS,QD 308 AE 1 CONJUNTO 12,13,-15.9234707,-48.1008902
DF,21,1112,CENTRO DE ENSINO MÉDIO 111 DO RECANTO DAS EMAS,QD 111 AE 1,15,-15.9124337,-48.0987998
DF,21,1120,ESCOLA CLASSE 102  DO RECANTO DAS EMAS,QD 102 CONJ 03 A LOTE 01,8,-15.9019965,-48.0615053
DF,21,1139,ESCOLA CLASSE 510 DO RECANTO DAS EMAS / CENTRO DE ENSINO FUNDAMENT 511,"QUADRA 511, CONJUNTO 11, EPC 2",12,-15.9328384,-48.1063582
DF,21,1147,CENTRO DE ENSINO FUNDAMENTAL 301 DO RECANTO DAS EMAS,QD 301 AE,15,-15.909003,-48.0848959
DF,21,1155,ESCOLA CLASSE 401 DO RECANTO DAS EMAS,QD 401 AE CONJUNTO 08 LT 01,14,-15.9090265,-48.0566452
DF,21,1163,ESCOLA CLASSE 510 DE SAMAMBAIA,QN 510 CONJUNTO 07 LOTE 1 AE,11,-15.8808321,-48.071612
DF,21,1171,CENTRO DE ENSINO FUNDAMENTAL 101 DO RECANTO DAS EMAS,QD. 101 CONJ. 10B LOTES 1/2 RECANTO DAS EMAS,14,-15.9000864,-48.0571957
DF,21,1180,CENTRO DE ENSINO FUNDAMENTAL 106 DO RECANTO DAS EMAS,QD 106 - ÁREA ESPECIAL,14,-15.9055665,-48.0818623
DF,21,1198,CENTRO DE ENSINO FUNDAMENTAL 519 DE SAMAMBAIA,QR 519 AREA ESPECIAL 1 SAMAMBAIA SUL,6,-15.8970153,-48.1149781
DF,21,1201,ESCOLA CLASSE 512 DE SAMAMBAIA,QN 512 CONJUNTO 06 AE,14,-15.8788714,-48.0681783
DF,21,1210,CENTRO DE ENSINO MÉDIO 804 DO RECANTO DAS EMAS,QD 804 ÁREA ESPECIAL 01,20,-15.9202169,-48.0579685
DF,21,1228,CENTRO DE ENSINO FUNDAMENTAL 206 DO RECANTO DAS EMAS,QD 206 CONJUNTO 02 LOTE 02,16,-15.9062673,-48.0689183
DF,21,1244,ESCOLA CLASSE 511 DE SAMAMBAIA,QR 511 AREA ESPECIAL 02 SAMAMBAIA-DF,9,-15.8903612,-48.1027452
DF,21,1252,ESCOLA CLASSE 404 DO RECANTO DAS EMAS,QD 404 CONJUNTO 09 LOTE 01,12,-15.9128741,-48.0613109
DF,21,1260,CENTRO DE ENSINO FUNDAMENTAL 113 DO RECANTO DAS EMAS,QD. 113 CONJ 8-A LOTE 01 AE,9,-15.918327,-48.1025473
DF,21,1287,CENTRO DE ENSINO FUNDAMENTAL 602 DO RECANTO DAS EMAS,QUADRA 602 CONJUNTO 01 LOTE 01,4,-15.915566,-48.0543466
DF,21,1295,CENTRO DE ENSINO FUNDAMENTAL 801 DO RECANTO DAS EMAS,QUADRA 801 ÁREA ESPECIAL CONJUNTO 01,6,-15.919084,-48.0521707
DF,21,1309,ESCOLA CLASSE 203 / REGIONAL DE ENSINO - RECANTO DAS EMAS,"QUADRA 203, LOTE 32",10,-15.9045978,-48.0648272